{
  "stations": [
    {
      "aliases": [
        "KRDU",
        "RDU",
        "RDU"
      ],
      "country": "US",
      "elev": 121,
      "faaId": "RDU",
      "iataId": "RDU",
      "icaoId": "KRDU",
      "id": "KRDU",
      "lat": 35.89228,
      "lon": -78.78196,
      "site": "Raleigh-Durham Intl",
      "siteType": [
        "METAR",
        "TAF"
      ],
      "state": "NC"
    },
    {
      "aliases": [
        "KATL",
        "ATL",
        "ATL"
      ],
      "country": "US",
      "elev": 309,
      "faaId": "ATL",
      "iataId": "ATL",
      "icaoId": "KATL",
      "id": "KATL",
      "lat": 33.62972,
      "lon": -84.44223,
      "site": "Atlanta/Hartsfield-Jackson Intl",
      "siteType": [
        "METAR",
        "TAF"
      ],
      "state": "GA"
    },
    {
      "aliases": [
        "KCLT",
        "CLT",
        "CLT"
      ],
      "country": "US",
      "elev": 223,
      "faaId": "CLT",
      "iataId": "CLT",
      "icaoId": "KCLT",
      "id": "KCLT",
      "lat": 35.22254,
      "lon": -80.95432,
      "site": "Charlotte/Douglas Intl",
      "siteType": [
        "METAR",
        "TAF"
      ],
      "state": "NC"
    },
    {
      "aliases": [
        "KDEN",
        "DEN",
        "DEN"
      ],
      "country": "US",
      "elev": 1656,
      "faaId": "DEN",
      "iataId": "DEN",
      "icaoId": "KDEN",
      "id": "KDEN",
      "lat": 39.84657,
      "lon": -104.65623,
      "site": "Denver Intl",
      "siteType": [
        "METAR",
        "TAF"
      ],
      "state": "CO"
    },
    {
      "aliases": [
        "KDFW",
        "DFW",
        "DFW"
      ],
      "country": "US",
      "elev": 168,
      "faaId": "DFW",
      "iataId": "DFW",
      "icaoId": "KDFW",
      "id": "KDFW",
      "lat": 32.89744,
      "lon": -97.02195,
      "site": "Dallas-Ft Worth Intl",
      "siteType": [
        "METAR",
        "TAF"
      ],
      "state": "TX"
    },
    {
      "aliases": [
        "KBNA",
        "BNA",
        "BNA"
      ],
      "country": "US",
      "elev": 168,
      "faaId": "BNA",
      "iataId": "BNA",
      "icaoId": "KBNA",
      "id": "KBNA",
      "lat": 36.11053,
      "lon": -86.68815,
      "site": "Nashville Intl",
      "siteType": [
        "METAR",
        "TAF"
      ],
      "state": "TN"
    },
    {
      "aliases": [
        "KJFK",
        "JFK",
        "JFK"
      ],
      "country": "US",
      "elev": 3,
      "faaId": "JFK",
      "iataId": "JFK",
      "icaoId": "KJFK",
      "id": "KJFK",
      "lat": 40.63916,
      "lon": -73.76394,
      "site": "New York/JF Kennedy Intl",
      "siteType": [
        "METAR",
        "TAF"
      ],
      "state": "NY"
    },
    {
      "aliases": [
        "KORD",
        "ORD",
        "ORD"
      ],
      "country": "US",
      "elev": 202,
      "faaId": "ORD",
      "iataId": "ORD",
      "icaoId": "KORD",
      "id": "KORD",
      "lat": 41.96017,
      "lon": -87.93161,
      "site": "Chicago/O'Hare Intl",
      "siteType": [
        "METAR",
        "TAF"
      ],
      "state": "IL"
    }
  ]
}